{"type":"FeatureCollection","features":[{"type":"Feature","properties":{"X":-17.53,"Y":64.63,"name":"Bardarbunga","Elev":2000,"Type":"Stratovolcano","Status":"Historical","Region":"Iceland-NE"},"geometry":{"type":"Point","coordinates":[-17.53,64.63]}},{"type":"Feature","properties":{"X":-16.65,"Y":64.27,"name":"Esjufjoll","Elev":1760,"Type":"Stratovolcano","Status":"Historical","Region":"Iceland-SE"},"geometry":{"type":"Point","coordinates":[-16.65,64.27]}},{"type":"Feature","properties":{"X":-19.62,"Y":63.63,"name":"Eyjafjallajokull","Elev":1666,"Type":"Stratovolcano","Status":"Historical","Region":"Iceland-S"},"geometry":{"type":"Point","coordinates":[-19.62,63.63]}},{"type":"Feature","properties":{"X":-17.33,"Y":64.42,"name":"Grimsvotn","Elev":1725,"Type":"Caldera","Status":"Historical","Region":"Iceland-NE"},"geometry":{"type":"Point","coordinates":[-17.33,64.42]}},{"type":"Feature","properties":{"X":-18.92,"Y":64.78,"name":"Hofsjokull","Elev":1782,"Type":"Subglacial volcano","Status":"Holocene","Region":"Iceland-SW"},"geometry":{"type":"Point","coordinates":[-18.92,64.78]}},{"type":"Feature","properties":{"X":-19.05,"Y":63.63,"name":"Katla","Elev":1512,"Type":"Subglacial volcano","Status":"Historical","Region":"Iceland-S"},"geometry":{"type":"Point","coordinates":[-19.05,63.63]}},{"type":"Feature","properties":{"X":-16.72,"Y":64.65,"name":"Kverkfjoll","Elev":1920,"Type":"Stratovolcano","Status":"Historical","Region":"Iceland-NE"},"geometry":{"type":"Point","coordinates":[-16.72,64.65]}},{"type":"Feature","properties":{"X":-19.98,"Y":64.75,"name":"Langjokull","Elev":1360,"Type":"Stratovolcano","Status":"Radiocarbon","Region":"Iceland-SW"},"geometry":{"type":"Point","coordinates":[-19.98,64.75]}},{"type":"Feature","properties":{"X":-16.65,"Y":"64.0","name":"Oraefajokull","Elev":2119,"Type":"Stratovolcano","Status":"Historical","Region":"Iceland-SE"},"geometry":{"type":"Point","coordinates":[-16.65,64]}},{"type":"Feature","properties":{"X":-20.58,"Y":64.6,"name":"Prestahnukur","Elev":1390,"Type":"Subglacial volcano","Status":"Radiocarbon","Region":"Iceland-SW"},"geometry":{"type":"Point","coordinates":[-20.58,64.6]}},{"type":"Feature","properties":{"X":-23.78,"Y":64.8,"name":"Snaefellsjokull","Elev":1448,"Type":"Stratovolcano","Status":"Radiocarbon","Region":"Iceland-W"},"geometry":{"type":"Point","coordinates":[-23.78,64.8]}},{"type":"Feature","properties":{"X":-17.92,"Y":64.73,"name":"Tungnafellsjokull","Elev":1535,"Type":"Stratovolcano","Status":"Holocene","Region":"Iceland-NE"},"geometry":{"type":"Point","coordinates":[-17.92,64.73]}}]}